id,name,long,lat,area,category
1,真菜也,34.70581,135.496641,梅田茶屋町,デート 和風 個室
2,しゃぶ亭,34.6727821,135.4994233,心斎橋,しゃぶしゃぶ 食べ放題 老舗 大人数
3,旬の揚 てんま,34.6728052,135.5006267,心斎橋,串揚げ 一人飲み
4,銀や 豊中店,34.7885978,135.4574768,豊中,海鮮 地酒 大人数
5,満マル,34.8167236,135.5439403,阪急茨木,安い 飲み会 JR
